{
  "wires": [
    {
      "name": "red_wire",
      "color": "red",
      "state": "on_table",
      "coordinates": [
        77,
        75
      ]
    },
    {
      "name": "green_wire",
      "color": "green",
      "state": "inserted",
      "coordinates": [
        15,
        43
      ]
    },
    {
      "name": "yellow_wire",
      "color": "yellow",
      "state": "inserted",
      "coordinates": [
        91,
        87
      ]
    },
    {
      "name": "black_wire",
      "color": "black",
      "state": "held",
      "coordinates": [
        34,
        50
      ]
    },
    {
      "name": "red_wire",
      "color": "red",
      "state": "inserted",
      "coordinates": [
        15,
        43
      ]
    }
  ],
  "terminals": {
    "terminal_0": {
      "state": "empty",
      "coordinates": [
        11,
        42
      ]
    },
    "terminal_1": {
      "state": "empty",
      "coordinates": [
        19,
        68
      ]
    },
    "terminal_2": {
      "state": "empty",
      "coordinates": [
        60,
        62
      ]
    },
    "terminal_3": {
      "state": "empty",
      "coordinates": [
        75,
        18
      ]
    },
    "terminal_4": {
      "state": "empty",
      "coordinates": [
        49,
        61
      ]
    },
    "terminal_5": {
      "state": "locked",
      "coordinates": [
        91,
        87
      ]
    },
    "terminal_6": {
      "state": "empty",
      "coordinates": [
        56,
        50
      ]
    },
    "terminal_7": {
      "state": "locked",
      "coordinates": [
        15,
        43
      ]
    },
    "terminal_8": {
      "state": "empty",
      "coordinates": [
        39,
        10
      ]
    },
    "terminal_9": {
      "state": "empty",
      "coordinates": [
        91,
        79
      ]
    }
  }
}