{
  "wires": [
    {
      "name": "green_wire",
      "color": "green",
      "state": "on_table",
      "coordinates": [
        48,
        11
      ]
    },
    {
      "name": "red_wire",
      "color": "red",
      "state": "on_table",
      "coordinates": [
        60,
        79
      ]
    },
    {
      "name": "green_wire",
      "color": "green",
      "state": "on_table",
      "coordinates": [
        11,
        82
      ]
    },
    {
      "name": "red_wire",
      "color": "red",
      "state": "on_table",
      "coordinates": [
        96,
        44
      ]
    },
    {
      "name": "blue_wire",
      "color": "blue",
      "state": "inserted",
      "coordinates": [
        19,
        86
      ]
    }
  ],
  "terminals": {
    "terminal_0": {
      "state": "empty",
      "coordinates": [
        13,
        99
      ]
    },
    "terminal_1": {
      "state": "empty",
      "coordinates": [
        64,
        26
      ]
    },
    "terminal_2": {
      "state": "empty",
      "coordinates": [
        20,
        62
      ]
    },
    "terminal_3": {
      "state": "empty",
      "coordinates": [
        45,
        95
      ]
    },
    "terminal_4": {
      "state": "empty",
      "coordinates": [
        76,
        83
      ]
    },
    "terminal_5": {
      "state": "inserted",
      "coordinates": [
        19,
        86
      ]
    },
    "terminal_6": {
      "state": "empty",
      "coordinates": [
        93,
        71
      ]
    },
    "terminal_7": {
      "state": "empty",
      "coordinates": [
        93,
        100
      ]
    },
    "terminal_8": {
      "state": "empty",
      "coordinates": [
        27,
        56
      ]
    },
    "terminal_9": {
      "state": "empty",
      "coordinates": [
        74,
        6
      ]
    }
  }
}