{
  "wires": [
    {
      "name": "black_wire",
      "color": "black",
      "state": "inserted",
      "coordinates": [
        17,
        88
      ]
    },
    {
      "name": "black_wire",
      "color": "black",
      "state": "inserted",
      "coordinates": [
        98,
        15
      ]
    },
    {
      "name": "blue_wire",
      "color": "blue",
      "state": "on_table",
      "coordinates": [
        56,
        63
      ]
    },
    {
      "name": "yellow_wire",
      "color": "yellow",
      "state": "on_table",
      "coordinates": [
        10,
        37
      ]
    },
    {
      "name": "black_wire",
      "color": "black",
      "state": "on_table",
      "coordinates": [
        95,
        22
      ]
    }
  ],
  "terminals": {
    "terminal_0": {
      "state": "locked",
      "coordinates": [
        98,
        15
      ]
    },
    "terminal_1": {
      "state": "empty",
      "coordinates": [
        48,
        4
      ]
    },
    "terminal_2": {
      "state": "inserted",
      "coordinates": [
        17,
        88
      ]
    },
    "terminal_3": {
      "state": "empty",
      "coordinates": [
        76,
        65
      ]
    },
    "terminal_4": {
      "state": "empty",
      "coordinates": [
        14,
        59
      ]
    },
    "terminal_5": {
      "state": "empty",
      "coordinates": [
        27,
        12
      ]
    },
    "terminal_6": {
      "state": "empty",
      "coordinates": [
        7,
        80
      ]
    },
    "terminal_7": {
      "state": "empty",
      "coordinates": [
        1,
        36
      ]
    },
    "terminal_8": {
      "state": "empty",
      "coordinates": [
        56,
        30
      ]
    },
    "terminal_9": {
      "state": "empty",
      "coordinates": [
        27,
        64
      ]
    }
  }
}